[{"created":1411241328000,"id":"208459022","name":"Let's get together and find out some of the ways R is used in Hamburg","status":"past","time":1421949600000,"local_date":"2015-01-22","local_time":"19:00","updated":1421962356000,"utc_offset":3600000,"waitlist_count":0,"yes_rsvp_count":21,"venue_name":"Collins/About You GmbH http://projekt-collins.de/","venue_address":"Domstr. 10 20095 Hamburg ","venue_lat":53.5493,"venue_lon":9.9957,"duration_h":"NAh NAmin"},{"created":1422427561000,"id":"220134832","name":"Next quarterly meeting","status":"past","time":1429635600000,"local_date":"2015-04-21","local_time":"19:00","updated":1429645172000,"utc_offset":7200000,"waitlist_count":0,"yes_rsvp_count":36,"duration":7200000,"venue_name":"Collins/About You GmbH http://projekt-collins.de/","venue_address":"Domstr. 10 20095 Hamburg ","venue_lat":53.5493,"venue_lon":9.9957,"duration_h":"2h 0min"},{"created":1429793029000,"id":"222042958","name":"Third quarterly meeting","status":"past","time":1436893200000,"local_date":"2015-07-14","local_time":"19:00","updated":1436967229000,"utc_offset":7200000,"waitlist_count":0,"yes_rsvp_count":31,"duration":7200000,"venue_name":"InnoGames GmbH ","venue_address":"Friesenstraße 13","venue_lat":53.5439,"venue_lon":10.0298,"duration_h":"2h 0min"},{"created":1436967812000,"id":"223938322","name":"4th quarterly meet up ","status":"past","time":1445358600000,"local_date":"2015-10-20","local_time":"18:30","updated":1445367966000,"utc_offset":7200000,"waitlist_count":0,"yes_rsvp_count":25,"duration":7200000,"venue_name":"HSBA Hamburg School of Business Administration","venue_address":"Alter Wall 38, 20457 Hamburg","venue_lat":53.5502,"venue_lon":9.9895,"duration_h":"2h 0min"},{"created":1447585081000,"id":"226786591","name":"5th Quarterly meetup","status":"past","time":1453224600000,"local_date":"2016-01-19","local_time":"18:30","updated":1453262972000,"utc_offset":3600000,"waitlist_count":0,"yes_rsvp_count":37,"duration":7200000,"venue_name":"Collins/About You GmbH http://projekt-collins.de/","venue_address":"Domstr. 10 20095 Hamburg ","venue_lat":53.5493,"venue_lon":9.9957,"duration_h":"2h 0min"},{"created":1456063895000,"id":"229015974","name":"7th Quarterly Hamburg R User Group Meetup","status":"past","time":1468342800000,"local_date":"2016-07-12","local_time":"19:00","updated":1468356341000,"utc_offset":7200000,"waitlist_count":0,"yes_rsvp_count":27,"venue_name":"Bytro","venue_address":"Zirkusweg 2","venue_lat":53.5474,"venue_lon":9.9662,"duration_h":"NAh NAmin"},{"created":1482135559000,"id":"236331600","name":"8th (semi) quarterly meetup","status":"past","time":1487700000000,"local_date":"2017-02-21","local_time":"19:00","updated":1487795806000,"utc_offset":3600000,"waitlist_count":0,"yes_rsvp_count":42,"venue_name":"Social Impact Lab","venue_address":"Pastorenstr. 16-18","venue_lat":53.5481,"venue_lon":9.9808,"duration_h":"NAh NAmin"},{"created":1487929401000,"id":"237953507","name":"9th Quarterly R User Group Meetup","status":"past","time":1494954000000,"local_date":"2017-05-16","local_time":"19:00","updated":1495447214000,"utc_offset":7200000,"waitlist_count":0,"yes_rsvp_count":56,"duration":10800000,"venue_name":"fashion.cloud","venue_address":"Hongkongstraße 1","venue_lat":53.5431,"venue_lon":10.0012,"duration_h":"3h 0min"},{"created":1497547766000,"id":"240818665","name":"10th Quarterly Meetup","status":"past","time":1501606800000,"local_date":"2017-08-01","local_time":"19:00","updated":1502268903000,"utc_offset":7200000,"waitlist_count":0,"yes_rsvp_count":61,"duration":7200000,"venue_name":"Xing AG","venue_address":"Dammtorstraße 30","venue_lat":53.5563,"venue_lon":9.9884,"duration_h":"2h 0min"},{"created":1507884086000,"id":"244169901","name":"11th Quarterly Meetup","status":"past","time":1512669600000,"local_date":"2017-12-07","local_time":"19:00","updated":1512724625000,"utc_offset":3600000,"waitlist_count":0,"yes_rsvp_count":53,"duration":7200000,"venue_name":"JobMatchMe GmbH","venue_address":"Glashüttenstraße 85","venue_lat":0,"venue_lon":0,"duration_h":"2h 0min"},{"created":1518102734000,"id":"247614601","name":"Free Workshop on Deep Learning with R","status":"past","time":1521565200000,"local_date":"2018-03-20","local_time":"18:00","updated":1526817624000,"utc_offset":3600000,"waitlist_count":0,"yes_rsvp_count":110,"duration":10800000,"rsvp_limit":110,"venue_name":"Zalando adtech lab","venue_address":"Neustädter Neuer Weg 22","venue_lat":53.5449,"venue_lon":9.9782,"duration_h":"3h 0min"},{"created":1526723739000,"id":"250934822","name":"R in production - Creating APIs with the plumber package","status":"past","time":1528304400000,"local_date":"2018-06-06","local_time":"19:00","updated":1528364479000,"utc_offset":7200000,"waitlist_count":0,"yes_rsvp_count":38,"duration":9000000,"rsvp_limit":60,"venue_name":"WeWork Hanse Forum","venue_address":"Axel-Springer-Platz 3","venue_lat":53.5521,"venue_lon":9.9844,"duration_h":"2h 30min"},{"created":1537196579000,"id":"254759801","name":"14th Quarterly Meetup (Lightning Talks & Get together)","status":"past","time":1538065800000,"local_date":"2018-09-27","local_time":"18:30","updated":1538077579000,"utc_offset":7200000,"waitlist_count":0,"yes_rsvp_count":13,"duration":9000000,"rsvp_limit":25,"venue_name":"JobMatchMe GmbH","venue_address":"Glashüttenstraße 85","venue_lat":0,"venue_lon":0,"duration_h":"2h 30min"},{"created":1546424914000,"id":"257703548","name":"Geocomputation with R, data science, open source software and geodata","status":"upcoming","time":1547056800000,"local_date":"2019-01-09","local_time":"19:00","updated":1546456564000,"utc_offset":3600000,"waitlist_count":0,"yes_rsvp_count":39,"duration":3600000,"rsvp_limit":45,"venue_name":"JobMatchMe GmbH","venue_address":"Zirkusweg 2","venue_lat":53.5474,"venue_lon":9.9653,"duration_h":"1h 0min"}]
